No,Latitude,Longitude,Name,Address,City,PostalCode,Phone
1,38.870741,-77.103000,"Cathedral of St Thomas More","Cathedral Ln","Arlington","22203","+(1)-(703)-5251300"
2,38.889742,-77.013587,"Capitol Reflecting Pool",,"District of Columbia",,
3,38.884787,-77.439315,"McDonald's","Brookfield Corporate Dr","Chantilly","20151",
4,38.952749,-77.447755,"Washington Dulles International Airport","Saarinen Cir","Sterling","20166","+(1)-(703)-5722700"
5,38.857596,-77.226819,"Inova Fairfax Medical Campus","Gallows Rd","Fairfax","22031","+(1)-(703)-7764001"
6,38.871771,-77.008025,"Nationals Park","S Capitol St SE","Washington","20003","+(1)-(888)-6326287"
